ID,City,Country,Date_Time,Latitude,Longitude,Max_Temperature,Humidity,Wind,Clouds
3874787,Punta Arenas,CL,07/03/2019 23:08:33,-53.16,-70.91,23.0,92,3.36,40
5960603,Geraldton,CA,07/03/2019 23:08:34,49.72,-86.95,68.0,72,3.36,40
4117436,Killin,US,07/03/2019 23:08:34,33.61,-91.74,78.8,78,4.7,1
2110227,Butaritari,KI,07/03/2019 23:08:34,3.07,172.79,84.47,66,2.64,42
3833367,Ushuaia,AR,07/03/2019 23:06:23,-54.81,-68.31,23.0,67,8.05,0
6201424,Mataura,NZ,07/03/2019 23:08:35,-46.19,168.86,45.0,84,1.01,31
5106834,Albany,US,07/03/2019 23:08:35,42.65,-73.75,70.0,93,3.36,1
3720455,Moron,HT,07/03/2019 23:08:35,18.56,-74.26,78.17,85,3.56,38
3366880,Hermanus,ZA,07/03/2019 23:08:35,-34.42,19.24,55.0,88,20.94,1
1507390,Dikson,RU,07/03/2019 23:03:55,73.51,80.55,35.51,94,13.04,100
2281120,Tabou,CI,07/03/2019 23:08:36,4.42,-7.36,73.67,94,4.54,100
3466165,Cidreira,BR,07/03/2019 23:08:36,-30.17,-50.22,45.59,71,10.31,0
5855927,Hilo,US,07/03/2019 23:08:36,19.71,-155.08,75.2,83,4.7,90
2094342,Kavieng,PG,07/03/2019 23:08:37,-2.57,150.8,83.39,70,4.92,14
3660573,Archidona,EC,07/03/2019 23:08:37,-0.91,-77.81,60.53,98,2.39,91
1863495,Gushikawa,JP,07/03/2019 23:08:37,26.35,127.87,82.4,78,12.75,75
2069194,Jamestown,AU,07/03/2019 23:08:38,-33.21,138.6,56.21,59,9.91,0
2112802,Hasaki,JP,07/03/2019 23:08:38,35.73,140.83,70.0,94,13.87,75
2025261,Chulman,RU,07/03/2019 23:08:38,56.84,124.9,51.53,55,9.22,100
6138908,Saint-Philippe,CA,07/03/2019 23:06:11,45.36,-73.48,73.0,82,3.36,1
4975802,Portland,US,07/03/2019 22:59:04,43.66,-70.25,66.2,82,3.58,1
3652764,Puerto Ayora,EC,07/03/2019 23:08:39,-0.74,-90.35,68.0,92,10.18,35
2123628,Magadan,RU,07/03/2019 23:08:39,59.56,150.8,45.23,93,8.21,95
3932145,Pisco,PE,07/03/2019 23:08:40,-13.71,-76.2,63.0,82,5.82,90
1651810,Airai,TL,07/03/2019 23:04:05,-8.93,125.41,82.67,46,3.83,56
6170031,Tuktoyaktuk,CA,07/03/2019 23:08:40,69.44,-133.03,64.4,68,9.17,90
1299237,Pyapon,MM,07/03/2019 23:08:40,16.29,95.68,81.23,81,15.95,99
2155415,New Norfolk,AU,07/03/2019 23:08:41,-42.78,147.06,53.01,71,5.82,20
7626384,Hovd,NO,07/03/2019 23:08:41,63.83,10.7,48.0,87,11.41,75
3892454,Diego de Almagro,CL,07/03/2019 23:08:41,-26.39,-70.05,47.75,76,0.98,93
1726279,Sabang,PH,07/03/2019 23:08:42,13.8,121.11,82.67,83,4.29,97
2090021,Namatanai,PG,07/03/2019 23:08:42,-3.66,152.44,79.79,80,13.2,72
2180815,Tuatapere,NZ,07/03/2019 23:08:42,-46.13,167.69,45.0,84,1.01,31
137956,Darab,IR,07/03/2019 23:08:42,28.75,54.55,89.69,17,2.57,3
3164565,Vila,IT,07/03/2019 23:08:43,45.18,8.4,75.0,88,5.82,0
2394819,Cotonou,BJ,07/03/2019 23:08:43,6.37,2.43,75.29,93,5.73,100
3369157,Cape Town,ZA,07/03/2019 23:05:22,-33.93,18.42,55.99,93,2.24,75
4011743,Constitucion,MX,07/03/2019 23:08:44,23.99,-104.67,62.01,70,11.01,77
3369174,Calvinia,ZA,07/03/2019 23:08:44,-31.47,19.78,45.95,35,5.26,0
3440777,Rocha,UY,07/03/2019 23:06:56,-34.48,-54.34,40.01,75,14.25,0
3390907,Manaia,BR,07/03/2019 23:08:45,-5.02,-39.08,67.19,98,0.49,100
6355222,Yulara,AU,07/03/2019 23:08:45,-25.24,130.99,68.0,18,12.75,0
4267710,Sitka,US,07/03/2019 23:08:45,37.17,-99.65,72.0,88,4.0,4
3893629,Coquimbo,CL,07/03/2019 23:08:45,-29.95,-71.34,53.01,87,4.7,0
4845585,Westport,US,07/03/2019 23:05:53,41.14,-73.36,73.4,88,1.19,1
3665199,Ariquemes,BR,07/03/2019 23:08:46,-9.91,-63.03,71.87,78,0.69,26
3378644,Georgetown,GY,07/03/2019 23:07:46,6.8,-58.16,75.2,100,3.0,75
2013727,Vanavara,RU,07/03/2019 23:08:46,60.35,102.28,83.93,27,1.21,0
3831208,Qaanaaq,GL,07/03/2019 23:08:47,77.48,-69.36,43.79,52,1.81,100
1490256,Talnakh,RU,07/03/2019 23:08:47,69.49,88.39,82.4,30,4.47,0
2181625,Te Anau,NZ,07/03/2019 23:08:47,-45.41,167.72,40.37,79,5.91,56
3863379,Mar del Plata,AR,07/03/2019 23:08:48,-46.43,-67.52,29.03,72,3.76,0
3356213,Khorixas,NA,07/03/2019 23:08:48,-20.37,14.96,54.77,16,7.56,0
2075265,Busselton,AU,07/03/2019 23:08:49,-33.64,115.35,55.99,98,12.59,100
4030556,Rikitea,PF,07/03/2019 23:08:49,-23.12,-134.97,67.19,71,24.7,90
6295855,Saint-Georges,CA,07/03/2019 23:08:49,46.12,-70.67,60.01,91,3.09,1
5847486,Kailua,US,07/03/2019 23:08:50,21.39,-157.74,82.4,83,6.93,40
3894426,Coihaique,CL,07/03/2019 23:06:46,-45.58,-72.07,30.2,100,0.72,40
3833859,Barrow,AR,07/03/2019 23:08:50,-38.31,-60.23,37.13,78,13.53,0
116402,Semnan,IR,07/03/2019 23:08:50,35.58,53.39,87.8,22,4.7,0
2084442,Vanimo,PG,07/03/2019 23:08:51,-2.67,141.3,83.57,68,9.22,91
2267254,Lagoa,PT,07/03/2019 23:08:51,37.14,-8.45,64.99,93,5.82,40
3896218,Castro,CL,07/03/2019 23:08:51,-42.48,-73.76,33.8,100,3.36,34
556268,Ostrovnoy,RU,07/03/2019 23:08:52,68.05,39.51,55.31,80,2.77,90
6185377,Yellowknife,CA,07/03/2019 23:08:52,62.45,-114.38,53.6,81,9.17,90
3356832,Henties Bay,NA,07/03/2019 23:08:52,-22.12,14.28,63.59,47,15.48,0
1242110,Kalmunai,LK,07/03/2019 23:08:53,7.42,81.82,98.87,31,5.21,69
2817970,Vacha,DE,07/03/2019 23:08:53,50.83,10.02,57.0,76,4.7,20
5710360,Winnemucca,US,07/03/2019 23:08:53,40.97,-117.74,64.0,30,4.7,20
4501427,Port Elizabeth,US,07/03/2019 23:08:54,39.31,-74.98,77.0,94,1.39,40
1056151,Mananjary,MG,07/03/2019 23:08:54,-19.16,46.8,66.65,44,2.46,0
2015217,Tokur,RU,07/03/2019 23:08:54,53.13,132.9,69.89,77,4.29,83
2126199,Cherskiy,RU,07/03/2019 23:08:54,68.75,161.3,55.13,49,1.88,98
743952,Kars,TR,07/03/2019 23:08:55,40.61,43.1,68.0,34,1.12,0
2409019,Gberia Fotombu,SL,07/03/2019 23:08:55,9.88,-11.17,71.33,99,3.22,100
3141667,Roald,NO,07/03/2019 23:08:55,62.58,6.12,48.2,81,5.82,75
4020109,Atuona,PF,07/03/2019 23:07:25,-9.8,-139.03,80.15,67,7.99,42
3452640,Porto Seguro,BR,07/03/2019 23:08:56,-16.44,-39.06,71.6,88,4.7,0
3372707,Ribeira Grande,PT,07/03/2019 23:08:56,38.52,-28.7,67.37,87,9.06,0
1627877,Sembakung,ID,07/03/2019 23:08:57,3.82,117.25,94.73,44,1.28,37
2264923,Peniche,PT,07/03/2019 23:08:57,39.36,-9.38,63.0,93,9.17,40
2163355,Hobart,AU,07/03/2019 23:08:57,-42.88,147.33,53.01,71,5.82,20
3418910,Upernavik,GL,07/03/2019 23:08:58,72.79,-56.15,38.93,86,0.63,4
5983720,Iqaluit,CA,07/03/2019 23:04:25,63.75,-68.52,39.2,86,18.34,90
4021858,Guerrero Negro,MX,07/03/2019 23:08:58,27.97,-114.04,65.39,83,16.42,0
3424607,Tasiilaq,GL,07/03/2019 23:08:58,65.61,-37.64,42.8,81,9.17,69
2240449,Luanda,AO,07/03/2019 23:08:59,-8.83,13.24,69.53,88,7.36,41
2126123,Chokurdakh,RU,07/03/2019 23:04:24,70.62,147.9,46.49,67,7.4,92
1712961,Gigmoto,PH,07/03/2019 23:08:59,13.78,124.39,84.83,71,7.56,4
964432,Port Alfred,ZA,07/03/2019 23:09:00,-33.59,26.89,55.99,77,1.99,0
463355,Zheleznodorozhnyy,RU,07/03/2019 23:09:00,55.75,38.0,59.0,58,13.42,75
3389673,Santa Cruz,BR,07/03/2019 23:09:00,-6.22,-36.02,68.99,93,6.87,44
3026644,Souillac,FR,07/03/2019 23:09:01,45.6,-0.6,71.01,63,8.05,0
3421765,Nanortalik,GL,07/03/2019 23:06:13,60.14,-45.24,39.65,82,2.68,0
2510573,Teguise,ES,07/03/2019 23:09:01,29.06,-13.56,69.8,64,12.75,75
2065594,Mount Isa,AU,07/03/2019 23:09:01,-20.73,139.49,77.0,22,9.17,0
2450173,Taoudenni,ML,07/03/2019 23:09:02,22.68,-3.98,92.39,20,13.73,0
1106677,Bambous Virieux,MU,07/03/2019 23:09:02,-20.34,57.76,75.99,83,3.36,40
1486910,Komsomolskiy,RU,07/03/2019 23:09:02,67.55,63.78,84.83,36,18.61,24
6165406,Thompson,CA,07/03/2019 23:09:02,55.74,-97.86,48.2,81,5.82,20
1733782,Victoria,BN,07/03/2019 23:09:03,5.28,115.24,80.6,94,1.12,90
3838859,Rio Gallegos,AR,07/03/2019 23:06:40,-51.62,-69.22,24.8,92,5.82,0
2980916,Saint-Denis,FR,07/03/2019 23:09:03,48.94,2.36,62.01,62,5.82,0
1052944,Angoche,MZ,07/03/2019 23:09:03,-16.23,39.91,73.49,77,9.22,13
1632694,Pangkalanbuun,ID,07/03/2019 23:09:04,-2.68,111.62,78.35,90,1.54,100
1861416,Ishigaki,JP,07/03/2019 23:09:04,24.34,124.16,84.2,94,8.05,75
5367788,Lompoc,US,07/03/2019 23:09:04,34.64,-120.46,60.01,87,14.99,90
3463237,Florianopolis,BR,07/03/2019 23:09:05,-27.6,-48.55,57.0,87,2.44,40
5325327,Avenal,US,07/03/2019 23:09:05,36.0,-120.13,80.6,49,5.82,1
2127202,Anadyr,RU,07/03/2019 23:09:05,64.73,177.51,68.0,45,17.9,20
546105,Nikolskoye,RU,07/03/2019 23:09:06,59.7,30.79,55.99,81,20.13,90
1015776,Bredasdorp,ZA,07/03/2019 23:07:55,-34.53,20.04,52.0,87,5.82,0
5848280,Kapaa,US,07/03/2019 23:09:06,22.08,-159.32,80.6,74,8.05,40
1174653,Kashmor,PK,07/03/2019 23:09:06,28.43,69.58,112.01,16,11.07,0
2093691,Kokoda,PG,07/03/2019 23:09:07,-8.88,147.74,63.41,98,2.3,99
475614,Verkhnedneprovskiy,RU,07/03/2019 23:09:07,54.98,33.35,56.39,59,12.3,0
2071860,Esperance,AU,07/03/2019 23:04:47,-33.86,121.89,68.0,30,21.92,99
3421193,Paamiut,GL,07/03/2019 23:09:08,61.99,-49.67,42.71,80,8.16,7
1520327,Osakarovka,KZ,07/03/2019 23:09:08,50.56,72.58,71.33,55,19.44,42
3835869,Santiago del Estero,AR,07/03/2019 23:05:40,-27.8,-64.26,47.03,61,5.57,8
2017155,Saskylakh,RU,07/03/2019 23:09:09,71.97,114.09,55.85,65,8.52,86
1515029,Ulaangom,MN,07/03/2019 23:09:09,49.98,92.07,75.47,29,8.81,81
1082243,Ambilobe,MG,07/03/2019 23:09:09,-13.19,49.05,79.79,54,9.98,1
1693243,Plaridel,PH,07/03/2019 23:09:09,13.96,122.02,90.05,56,4.23,92
1019760,Bethal,ZA,07/03/2019 23:09:10,-26.46,29.47,39.99,62,3.27,0
4031574,Provideniya,RU,07/03/2019 23:09:10,64.42,-173.23,48.2,87,11.18,40
1006984,East London,ZA,07/03/2019 23:05:48,-33.02,27.91,50.0,87,6.93,0
2170581,Coolum Beach,AU,07/03/2019 23:09:10,-26.53,153.09,69.01,71,4.0,80
6050066,La Ronge,CA,07/03/2019 23:09:11,55.1,-105.3,51.8,76,4.7,40
3421319,Nuuk,GL,07/03/2019 23:09:11,64.17,-51.74,46.4,75,11.41,50
588365,Vao,EE,07/03/2019 23:09:11,59.1,26.19,55.31,55,10.31,100
3692072,Santiago de Chuco,PE,07/03/2019 23:09:12,-8.15,-78.17,44.51,89,2.95,0
3981460,Coahuayana,MX,07/03/2019 23:09:12,18.62,-100.35,72.23,86,2.59,0
4035715,Avarua,CK,07/03/2019 23:08:44,-21.21,-159.78,71.6,56,16.11,27
1266668,Khonsa,IN,07/03/2019 23:09:13,26.99,95.51,79.97,89,3.18,91
1280957,Jiayuguan,CN,07/03/2019 23:09:13,39.77,98.29,87.17,10,10.25,0
2122090,Pevek,RU,07/03/2019 23:09:13,69.7,170.27,34.61,94,5.66,73
3443061,Chuy,UY,07/03/2019 23:09:13,-33.69,-53.46,44.51,70,18.25,0
6320062,Vila Velha,BR,07/03/2019 23:09:14,-3.71,-38.6,77.0,83,5.82,40
898905,Sesheke,NA,07/03/2019 23:09:14,-17.47,24.29,48.2,70,3.36,0
1633419,Padang,ID,07/03/2019 23:09:14,-0.92,100.36,82.67,73,4.05,53
4031637,Lavrentiya,RU,07/03/2019 23:09:15,65.58,-170.99,62.33,52,11.3,13
1784310,Zhongshu,CN,07/03/2019 23:09:15,24.52,103.77,68.45,85,6.82,97
525426,Sobolevo,RU,07/03/2019 23:09:15,54.43,31.9,53.69,78,13.38,18
1636806,Majene,ID,07/03/2019 23:09:15,-3.54,118.97,82.67,75,12.59,63
3671497,Puerto Colombia,CO,07/03/2019 23:09:16,10.99,-74.96,80.6,78,13.87,0
3460954,Praia,BR,07/03/2019 23:09:16,-20.25,-43.81,55.4,87,3.24,0
3453060,Pontes e Lacerda,BR,07/03/2019 23:09:16,-15.23,-59.33,64.31,95,3.06,1
5354943,Half Moon Bay,US,07/03/2019 23:09:17,37.46,-122.43,60.8,93,12.75,90
2409914,Bonthe,SL,07/03/2019 23:09:17,7.53,-12.5,76.91,87,3.89,100
1337606,Eydhafushi,MV,07/03/2019 23:09:17,5.1,73.07,83.75,73,9.42,61
359792,Aswan,EG,07/03/2019 23:09:18,24.09,32.9,86.0,20,8.05,0
4031742,Egvekinot,RU,07/03/2019 23:09:18,66.32,-179.17,61.79,53,14.43,52
6322184,Porto Novo,BR,07/03/2019 23:09:18,-23.68,-45.44,66.2,88,12.15,75
108410,Riyadh,SA,07/03/2019 23:09:18,24.63,46.72,95.0,11,9.17,0
3947322,Arequipa,PE,07/03/2019 23:05:03,-16.4,-71.54,50.0,25,8.05,0
2460954,Araouane,ML,07/03/2019 23:09:19,18.9,-3.53,93.29,24,13.15,10
1688687,San Quintin,PH,07/03/2019 23:09:19,17.54,120.52,85.55,67,7.16,100
1684245,Tagusao,PH,07/03/2019 23:09:19,9.19,117.81,85.37,62,2.55,97
1516589,Zhezkazgan,KZ,07/03/2019 23:09:20,47.8,67.71,78.8,47,6.71,40
3545981,Niquero,CU,07/03/2019 23:09:20,20.04,-77.58,83.39,69,3.33,32
1273574,Vaini,IN,07/03/2019 23:09:20,15.34,74.49,78.8,78,11.41,75
2219235,Awbari,LY,07/03/2019 23:09:21,26.59,12.77,89.87,15,10.42,0
3939168,Huarmey,PE,07/03/2019 23:09:21,-10.07,-78.15,62.87,84,14.83,55
2122614,Ekhabi,RU,07/03/2019 23:09:21,53.51,142.97,59.63,70,18.81,97
344979,Lebu,ET,07/03/2019 23:09:22,8.96,38.73,62.69,72,2.01,91
5554072,Juneau,US,07/03/2019 23:07:40,58.3,-134.42,68.0,68,10.29,20
543508,Kovdor,RU,07/03/2019 23:09:22,67.56,30.47,51.89,87,3.22,100
3420846,Qaqortoq,GL,07/03/2019 23:09:22,60.72,-46.03,44.6,70,4.7,0
2269594,Cascais,PT,07/03/2019 23:09:23,38.7,-9.42,64.4,93,9.17,40
2175403,Bluff,AU,07/03/2019 23:09:23,-23.58,149.07,65.57,66,8.37,100
2995603,Saint-Pierre,FR,07/03/2019 23:09:23,48.95,4.24,57.99,71,10.29,0
3843123,Neuquen,AR,07/03/2019 23:09:24,-38.95,-68.06,41.0,93,2.24,40
1862505,Hirara,JP,07/03/2019 23:09:24,24.8,125.28,77.0,94,5.82,75
2140558,Koumac,NC,07/03/2019 23:09:24,-20.56,164.28,73.49,68,11.18,94
2136697,Lakatoro,VU,07/03/2019 23:09:24,-16.11,167.42,80.15,80,11.9,43
3870282,Talcahuano,CL,07/03/2019 23:09:25,-36.72,-73.12,46.4,93,6.93,75
5880568,Bethel,US,07/03/2019 23:09:25,60.79,-161.76,57.2,93,13.87,90
751816,Artvin,TR,07/03/2019 23:09:25,41.18,41.83,75.2,78,4.7,20
5969025,Haines Junction,CA,07/03/2019 23:09:26,60.75,-137.51,57.29,71,3.38,84
98182,Baghdad,IQ,07/03/2019 23:09:26,33.3,44.38,93.2,23,12.75,0
2014833,Tura,RU,07/03/2019 23:09:26,64.27,100.22,80.87,32,13.78,32
1524801,Shieli,KZ,07/03/2019 23:09:26,44.18,66.74,92.75,24,7.92,0
2160063,Codrington,AU,07/03/2019 23:09:27,-28.95,153.24,68.0,68,14.99,75
2022572,Khatanga,RU,07/03/2019 23:09:27,71.98,102.47,64.13,42,12.3,40
2126493,Boshnyakovo,RU,07/03/2019 23:09:27,49.65,142.17,51.53,95,14.79,15
2388036,Bossangoa,CF,07/03/2019 23:09:28,6.5,17.45,71.15,96,2.8,100
3397893,Itacoatiara,BR,07/03/2019 23:09:28,-3.14,-58.44,72.05,92,2.04,5
5572400,Susanville,US,07/03/2019 23:09:28,40.42,-120.65,62.6,42,5.82,1
1633442,Paciran,ID,07/03/2019 23:09:29,-6.9,112.33,85.73,63,11.41,42
1083724,Ambanja,MG,07/03/2019 23:09:29,-13.68,48.45,76.73,76,8.39,0
2622139,Fjerritslev,DK,07/03/2019 23:09:29,57.08,9.27,57.0,87,3.0,67
1794903,Shiyan,CN,07/03/2019 23:09:30,32.65,110.78,67.37,87,1.12,100
4732862,Nome,US,07/03/2019 23:09:30,30.04,-94.42,82.99,100,4.7,1
2225940,Yatou,CM,07/03/2019 23:09:30,3.63,9.81,77.0,100,12.75,75
1177203,Hangu,PK,07/03/2019 23:09:30,33.53,71.06,99.59,15,6.51,0
1635111,Puri,ID,07/03/2019 23:09:31,-7.54,112.45,89.87,50,6.62,44
1014034,Carnarvon,ZA,07/03/2019 23:09:31,-30.97,22.13,42.89,34,6.85,0
532825,Lyaskelya,RU,07/03/2019 23:09:31,61.77,31.02,56.21,54,8.77,100
3580733,Bodden Town,KY,07/03/2019 23:09:32,19.28,-81.25,83.93,67,4.03,7
6111862,Port Hardy,CA,07/03/2019 23:09:32,50.7,-127.42,57.2,87,8.05,90
4899665,Lewistown,US,07/03/2019 23:09:32,40.39,-90.15,73.0,94,6.93,1
3137469,Sorland,NO,07/03/2019 23:09:33,67.67,12.69,48.2,81,16.11,40
1162634,Wana,PK,07/03/2019 23:09:33,32.31,69.59,79.43,33,10.38,0
3437029,San Patricio,PY,07/03/2019 23:09:33,-26.98,-56.83,40.37,78,4.5,0
4231997,Avera,US,07/03/2019 23:09:33,33.19,-82.53,84.0,88,4.7,1
3386177,Trairi,BR,07/03/2019 23:09:34,-3.28,-39.27,69.35,97,4.43,4
3141332,Roros,NO,07/03/2019 23:09:34,62.57,11.38,39.2,93,8.05,75
5847411,Kahului,US,07/03/2019 23:06:43,20.89,-156.47,75.99,94,12.75,1
5768244,Rapid Valley,US,07/03/2019 23:09:35,44.06,-103.15,66.2,93,20.8,90
3449747,Santa Vitoria do Palmar,BR,07/03/2019 23:09:35,-33.52,-53.37,41.45,75,14.45,0
2120047,Ust-Omchug,RU,07/03/2019 23:09:35,61.13,149.63,61.43,44,15.52,31
104515,Mecca,SA,07/03/2019 23:08:58,21.43,39.83,92.75,31,6.2,0
3572189,High Rock,BS,07/03/2019 23:09:36,26.63,-78.28,83.57,76,8.48,58
2185329,Otane,NZ,07/03/2019 23:09:36,-39.89,176.62,45.0,94,11.23,100
704885,Korostyshiv,UA,07/03/2019 23:09:37,50.32,29.06,59.45,70,9.91,0
4115181,Hope,US,07/03/2019 23:09:37,33.67,-93.59,75.99,88,5.82,1
1244926,Hambantota,LK,07/03/2019 23:09:37,6.12,81.12,89.6,70,12.75,75
3020925,Dourdan,FR,07/03/2019 23:09:38,48.53,2.01,62.01,62,11.41,0
3577430,Road Town,VG,07/03/2019 23:04:49,18.42,-64.62,82.0,78,10.29,1
5969785,Hamilton,CA,07/03/2019 23:08:36,43.26,-79.87,71.01,93,2.24,20
778707,Mehamn,NO,07/03/2019 23:05:27,71.03,27.85,44.6,93,11.41,75
904422,Mumbwa,ZM,07/03/2019 23:09:39,-14.99,27.06,59.99,75,9.55,0
4366164,Washington DC.,US,07/03/2019 22:58:51,38.9,-77.04,79.0,100,2.33,1
5554428,Ketchikan,US,07/03/2019 23:09:40,55.34,-131.65,57.2,87,10.29,90
687093,Kozulka,UA,07/03/2019 23:09:40,50.04,23.8,59.0,62,6.71,0
3372745,Rabo de Peixe,PT,07/03/2019 23:09:40,37.8,-25.58,66.2,88,10.29,40
2063036,Port Lincoln,AU,07/03/2019 23:09:40,-34.72,135.86,56.39,73,16.87,0
3451138,Rio Grande,BR,07/03/2019 23:09:41,-32.03,-52.1,39.83,77,8.95,0
3133895,Tromso,NO,07/03/2019 23:09:41,69.65,18.96,48.2,87,1.12,75
3389609,Pimentel,BR,07/03/2019 23:09:41,-3.7,-45.5,70.07,99,1.19,0
2980080,Saint-Francois,FR,07/03/2019 23:09:42,46.42,3.91,62.6,82,1.36,0
4152311,Crestview,US,07/03/2019 23:09:42,30.76,-86.57,82.4,88,3.36,1
651951,Kokkola,FI,07/03/2019 23:09:42,63.84,23.13,55.4,62,11.41,0
5924351,Clyde River,CA,07/03/2019 23:09:43,70.47,-68.59,32.0,86,4.7,90
3698359,Chicama,PE,07/03/2019 23:09:43,-7.84,-79.15,62.6,88,6.93,90
2161515,Kiama,AU,07/03/2019 23:09:43,-34.67,150.86,60.01,67,10.29,75
610864,Khani,GE,07/03/2019 23:09:44,41.96,42.96,77.0,69,2.24,75
3899695,Ancud,CL,07/03/2019 23:09:44,-41.87,-73.83,33.8,100,3.36,0
2136825,Isangel,VU,07/03/2019 23:09:44,-19.55,169.27,77.0,78,4.7,75
1037125,Montepuez,MZ,07/03/2019 23:09:45,-13.13,39.0,70.97,64,10.33,0
1714733,Dingle,PH,07/03/2019 23:09:45,11.0,122.67,84.83,69,0.76,99
1804430,Lanzhou,CN,07/03/2019 23:09:45,36.06,103.82,77.0,41,6.71,0
2123814,Leningradskiy,RU,07/03/2019 23:09:46,69.38,178.42,38.75,91,5.14,98
986717,Kruisfontein,ZA,07/03/2019 23:09:46,-34.0,24.73,49.73,71,4.59,0
1528998,Yumen,CN,07/03/2019 23:09:46,40.29,97.04,92.21,9,6.78,0
4034551,Faanui,PF,07/03/2019 23:09:47,-16.48,-151.75,76.55,72,31.83,87
1488903,Turukhansk,RU,07/03/2019 23:09:47,65.8,87.96,85.37,49,2.89,0
2630299,Hofn,IS,07/03/2019 23:09:47,64.25,-15.21,39.29,99,3.62,100
1489401,Toora-Khem,RU,07/03/2019 23:09:47,52.47,96.11,75.65,49,1.92,100
3421719,Narsaq,GL,07/03/2019 23:09:48,60.91,-46.05,44.6,70,4.7,0
3374210,Sao Filipe,CV,07/03/2019 23:09:48,14.9,-24.5,73.31,87,12.48,61
3685292,Dagua,CO,07/03/2019 23:09:48,3.66,-76.69,71.6,83,6.93,100
3516488,Sucila,MX,07/03/2019 23:09:49,21.15,-88.32,75.29,94,4.76,5
745664,Hendek,TR,07/03/2019 23:09:49,40.8,30.75,75.2,83,5.82,20
3382160,Cayenne,GF,07/03/2019 23:09:49,4.94,-52.33,75.2,94,2.64,0
3620266,Corn Island,NI,07/03/2019 23:09:50,12.17,-83.04,81.41,80,20.2,100
6185607,Yorkton,CA,07/03/2019 23:09:50,51.21,-102.46,55.4,76,3.36,1
2374583,Bubaque,GW,07/03/2019 23:09:50,11.28,-15.83,79.61,83,12.59,98
3448350,Pombas,BR,07/03/2019 23:09:50,-15.9,-54.74,69.53,65,3.04,23
3576994,Cockburn Town,TC,07/03/2019 23:05:16,21.46,-71.14,81.95,80,19.15,35
1282256,Hithadhoo,MV,07/03/2019 23:09:51,-0.6,73.08,84.11,76,13.51,48
3412093,Vestmannaeyjar,IS,07/03/2019 23:09:51,63.44,-20.27,49.73,81,11.95,100
2068110,Kununurra,AU,07/03/2019 23:09:51,-15.77,128.74,86.0,10,9.17,0
5793272,East Wenatchee Bench,US,07/03/2019 23:09:52,47.43,-120.28,69.8,40,5.82,1
371745,Kutum,SD,07/03/2019 23:09:52,14.2,24.66,81.77,42,8.63,28
3146487,Raudeberg,NO,07/03/2019 23:09:52,61.99,5.14,48.2,87,18.34,75
1628757,Maloy,ID,07/03/2019 23:09:53,1.0,118.1,85.19,64,4.36,54
3459462,Jundiai,BR,07/03/2019 23:09:53,-23.19,-46.88,68.0,64,2.24,75
1648186,Bontang,ID,07/03/2019 23:09:54,0.12,117.47,92.03,47,0.85,64
6167817,Torbay,CA,07/03/2019 23:07:10,47.66,-52.73,51.01,100,6.93,90
1054463,Tsiroanomandidy,MG,07/03/2019 23:09:54,-18.77,46.05,65.57,51,3.0,0
2122605,Okhotsk,RU,07/03/2019 23:09:54,59.36,143.24,48.29,93,12.03,100
2236568,Uige,AO,07/03/2019 23:09:55,-7.61,15.06,62.69,69,2.19,60
921786,Mitsamiouli,KM,07/03/2019 23:09:55,-11.38,43.28,73.4,69,4.7,75
618453,Kamenka,MD,07/03/2019 23:09:55,48.03,28.7,66.0,60,3.0,22
4407665,Kodiak,US,07/03/2019 23:09:55,39.95,-94.76,75.99,60,7.25,1
2222230,Sangmelima,CM,07/03/2019 23:09:56,2.93,11.98,69.17,98,2.71,100
2647311,Haverfordwest,GB,07/03/2019 23:09:56,51.8,-4.97,57.99,93,2.24,15
1505991,Igarka,RU,07/03/2019 23:09:56,67.47,86.57,83.93,38,5.93,21
3423146,Ilulissat,GL,07/03/2019 23:09:57,69.22,-51.1,44.6,75,2.24,33
3520994,Puerto Escondido,MX,07/03/2019 23:09:57,15.86,-97.07,77.09,81,4.65,48
3530097,Champerico,MX,07/03/2019 23:09:57,16.38,-93.6,77.0,83,2.13,5
2027044,Batagay,RU,07/03/2019 23:09:58,67.65,134.64,52.97,53,3.15,100
1852357,Shimoda,JP,07/03/2019 23:09:58,34.7,138.93,80.6,78,8.05,75
2729907,Longyearbyen,NO,07/03/2019 23:09:58,78.22,15.63,48.2,66,9.17,40
1035025,Nacala,MZ,07/03/2019 23:09:58,-14.56,40.69,74.57,72,12.53,4
2377457,Nouadhibou,MR,07/03/2019 23:09:59,20.93,-17.03,69.8,73,20.8,0
1495626,Pangody,RU,07/03/2019 23:09:59,65.85,74.49,85.19,28,14.5,99
3395981,Maceio,BR,07/03/2019 23:05:20,-9.67,-35.74,71.6,88,3.36,0
3416888,Grindavik,IS,07/03/2019 23:10:00,63.84,-22.43,51.01,100,6.93,90
3347019,Namibe,AO,07/03/2019 23:10:00,-15.19,12.15,69.53,75,13.71,13
3372472,Vila Franca do Campo,PT,07/03/2019 23:10:00,37.72,-25.43,66.2,88,10.29,40
3401148,Cururupu,BR,07/03/2019 23:10:00,-1.82,-44.87,72.41,99,2.24,7
5128549,New Rochelle,US,07/03/2019 23:08:06,40.91,-73.78,78.01,83,3.36,1
3571913,Marsh Harbour,BS,07/03/2019 23:09:53,26.54,-77.06,83.03,73,10.89,83
2168305,Dubbo,AU,07/03/2019 23:10:01,-32.25,148.6,66.2,42,13.87,0
2377450,Nouakchott,MR,07/03/2019 23:10:02,18.08,-15.98,71.6,88,8.05,11
3379316,Lethem,GY,07/03/2019 23:10:02,3.38,-59.8,74.03,92,7.14,98
2038342,Beipiao,CN,07/03/2019 23:10:02,41.8,120.76,94.01,18,6.49,32
1850144,Nishihara,JP,07/03/2019 23:10:03,35.74,139.53,75.99,88,8.05,90
5983193,Ingleside,CA,07/03/2019 23:10:03,45.0,-74.99,71.6,93,3.47,1
1701054,Marawi,PH,07/03/2019 23:10:03,8.0,124.29,84.0,80,5.99,84
1861280,Itoman,JP,07/03/2019 23:10:03,26.12,127.67,82.4,78,12.75,75
2013918,Ust-Maya,RU,07/03/2019 23:10:04,60.42,134.54,65.57,46,5.44,97
2022083,Alekseyevsk,RU,07/03/2019 23:10:04,57.84,108.35,71.69,27,8.32,18
2017384,Rudnaya Pristan,RU,07/03/2019 23:10:04,44.36,135.82,63.59,76,3.94,100
456202,Rezekne,LV,07/03/2019 23:10:05,56.5,27.32,54.41,72,12.3,0
1650064,Barabai,ID,07/03/2019 23:10:05,-2.59,115.38,85.91,63,3.27,83
3471451,Arraial do Cabo,BR,07/03/2019 23:10:05,-22.97,-42.02,75.83,66,4.14,66
7626370,Bud,NO,07/03/2019 23:06:26,62.91,6.91,48.2,81,5.82,75
180992,Rumuruti,KE,07/03/2019 23:10:06,0.26,36.54,62.51,77,3.76,71
5882953,Aklavik,CA,07/03/2019 23:10:06,68.22,-135.01,68.0,49,11.41,90
3459126,Lagoa Vermelha,BR,07/03/2019 23:10:06,-28.21,-51.53,34.97,84,1.36,0
1142226,Dawlatabad,AF,07/03/2019 23:10:06,36.41,64.91,86.99,15,8.01,0
934322,Mahebourg,MU,07/03/2019 23:10:07,-20.41,57.7,75.99,83,3.36,40
2121025,Srednekolymsk,RU,07/03/2019 23:10:07,67.46,153.71,62.33,42,6.85,100
2236967,Soyo,AO,07/03/2019 23:10:07,-6.13,12.37,71.6,94,13.2,20
3356264,Keetmanshoop,NA,07/03/2019 23:10:08,-26.57,18.15,46.4,33,9.17,0
901344,Ndola,ZM,07/03/2019 23:10:08,-12.97,28.64,61.43,72,9.15,0
1865309,Katsuura,JP,07/03/2019 23:10:08,33.93,134.5,84.2,66,5.82,75
1490796,Strezhevoy,RU,07/03/2019 23:10:09,60.73,77.6,77.0,73,2.24,0
1784131,Huilong,CN,07/03/2019 23:10:09,31.15,106.5,71.33,89,1.41,100
5563839,Fortuna,US,07/03/2019 23:10:14,40.6,-124.16,59.0,87,8.05,90
2028462,Ulaanbaatar,MN,07/03/2019 23:10:14,47.92,106.92,71.6,53,13.42,40
3526756,Isla Mujeres,MX,07/03/2019 23:08:17,21.23,-86.73,82.4,83,4.7,20
1817240,Baiyin,CN,07/03/2019 23:10:15,36.55,104.13,77.0,41,6.71,0
1259395,Porbandar,IN,07/03/2019 23:10:16,21.64,69.61,89.6,66,14.99,40
3135728,Straumen,NO,07/03/2019 23:10:16,63.87,11.3,46.4,87,11.41,75
1214965,Kabanjahe,ID,07/03/2019 23:10:16,3.1,98.49,90.0,41,2.77,80
2088163,Popondetta,PG,07/03/2019 23:10:17,-8.77,148.24,69.17,96,2.89,92
2618795,Klaksvik,FO,07/03/2019 23:10:17,62.23,-6.59,50.0,100,5.82,100
2077895,Alice Springs,AU,07/03/2019 23:06:34,-23.7,133.88,66.2,25,12.75,0
2206854,Gisborne,NZ,07/03/2019 23:10:17,-38.66,178.02,51.01,90,31.18,100
6173331,West Bay,CA,07/03/2019 23:10:18,49.34,-123.21,63.0,72,9.17,75
3662927,Pauini,BR,07/03/2019 23:10:18,-7.71,-67.0,73.13,82,1.86,46
3846915,Libertador General San Martin,AR,07/03/2019 23:10:18,-23.81,-64.79,41.81,90,1.83,7
1854774,Oda,JP,07/03/2019 23:10:19,35.19,132.5,80.6,61,10.29,20
2157698,Mildura,AU,07/03/2019 23:10:19,-34.18,142.16,66.0,52,8.05,0
1040652,Maputo,MZ,07/03/2019 23:06:22,-25.97,32.57,60.53,58,4.0,0
2339937,Auki,NG,07/03/2019 23:10:20,12.18,6.51,77.45,78,10.04,98
86049,Jalu,LY,07/03/2019 23:10:20,29.03,21.55,79.61,42,6.89,0
3897334,Calbuco,CL,07/03/2019 23:10:20,-41.77,-73.13,39.2,100,3.47,75
1058381,Morondava,MG,07/03/2019 23:10:21,-20.3,44.28,74.93,60,9.69,0
3996234,Lazaro Cardenas,MX,07/03/2019 23:10:21,28.39,-105.62,75.0,53,5.01,90
380348,Abu Zabad,SD,07/03/2019 23:10:21,12.35,29.25,78.53,73,13.02,22
1213855,Sibolga,ID,07/03/2019 23:10:22,1.74,98.78,83.03,72,5.93,75
2030065,Mandalgovi,MN,07/03/2019 23:10:22,45.76,106.27,74.93,46,18.01,95
4740364,Weatherford,US,07/03/2019 23:08:57,32.76,-97.8,79.0,78,10.29,75
1497337,Kayerkan,RU,07/03/2019 23:10:23,69.35,87.76,82.4,30,4.47,0
2121385,Severo-Kurilsk,RU,07/03/2019 23:10:23,50.68,156.12,42.35,97,13.47,100
2015306,Tiksi,RU,07/03/2019 23:10:23,71.64,128.87,40.01,83,8.48,100
1715335,Davila,PH,07/03/2019 23:10:23,18.47,120.58,89.6,66,12.75,75
1626493,Srandakan,ID,07/03/2019 23:07:29,-7.94,110.25,77.27,88,12.01,43
1056899,Sambava,MG,07/03/2019 23:10:24,-14.27,50.17,73.49,70,4.03,44
1835848,Seoul,KR,07/03/2019 23:00:02,37.57,126.98,91.4,29,5.82,1
1253628,Lata,IN,07/03/2019 23:10:25,30.78,78.62,51.53,92,7.54,41
3581398,Laguna,BZ,07/03/2019 23:10:25,16.17,-88.94,78.8,94,1.36,75
2803461,Marienburg,DE,07/03/2019 23:10:25,52.12,9.98,57.99,81,4.7,0
5223593,Newport,US,07/03/2019 23:10:25,41.49,-71.31,71.6,77,4.7,1
1040938,Manjacaze,MZ,07/03/2019 23:10:26,-24.71,33.88,60.35,72,4.23,0
507624,Pokhvistnevo,RU,07/03/2019 23:10:26,53.65,52.12,69.35,75,11.03,0
1498283,Mugur-Aksy,RU,07/03/2019 23:10:27,50.38,90.44,55.67,51,1.59,89
1529484,Hami,CN,07/03/2019 23:10:27,42.84,93.51,96.89,7,7.25,0
610613,Aksay,KZ,07/03/2019 23:10:27,51.17,53.01,78.35,53,10.11,0
2063039,Port Keats,AU,07/03/2019 23:10:28,-14.25,129.55,83.03,25,11.01,0
3860443,Comodoro Rivadavia,AR,07/03/2019 23:10:28,-45.87,-67.48,30.2,68,9.17,0
2337542,Naze,NG,07/03/2019 23:10:28,5.43,7.07,73.13,97,2.48,100
364933,Umm Kaddadah,SD,07/03/2019 23:10:29,13.6,26.69,84.65,49,12.3,0
1637001,Biak,ID,07/03/2019 23:10:29,-0.91,122.88,68.63,93,3.33,91
1636426,Manggar,ID,07/03/2019 23:07:09,-2.88,108.27,89.33,56,9.26,14
932987,Tsabong,BW,07/03/2019 23:10:29,-26.02,22.4,48.11,21,10.02,0
3533462,Acapulco,MX,07/03/2019 23:10:30,16.86,-99.88,84.2,83,3.65,75
1650233,Banjar,ID,07/03/2019 23:10:30,-7.37,108.54,82.49,68,5.77,82
565857,Dobrinka,RU,07/03/2019 23:10:30,52.17,40.48,62.51,63,12.15,0
3448903,Sao Joao da Barra,BR,07/03/2019 23:10:31,-21.64,-41.05,68.27,75,3.78,84
3928993,San Vicente de Canete,PE,07/03/2019 23:10:31,-13.08,-76.38,58.73,87,4.76,39
3172617,Morbegno,IT,07/03/2019 23:07:47,46.13,9.57,73.0,82,5.82,0
5301388,Lake Havasu City,US,07/03/2019 23:10:32,34.47,-114.34,96.8,9,8.05,1
3119841,Beira,ES,07/03/2019 23:10:32,43.2,-8.36,66.0,93,3.36,0
2063056,Port Augusta,AU,07/03/2019 23:10:32,-32.49,137.76,61.0,67,10.29,0
2446796,Bilma,NE,07/03/2019 23:10:32,18.69,12.92,90.05,34,8.46,47
737021,Zonguldak,TR,07/03/2019 23:10:33,41.25,31.83,73.4,78,4.7,20
3386213,Touros,BR,07/03/2019 23:10:33,-5.2,-35.46,73.4,100,2.24,40
2137748,Voh,NC,07/03/2019 23:10:33,-20.95,164.69,72.95,70,8.16,100
5921525,Mackay,CA,07/03/2019 23:10:34,53.65,-115.58,46.4,100,4.7,40
913323,Kaoma,ZM,07/03/2019 23:10:34,-14.8,24.8,59.99,69,8.3,0
1650434,Bambanglipuro,ID,07/03/2019 23:10:34,-7.95,110.28,77.27,88,12.01,43
1799686,Tongzi,CN,07/03/2019 23:10:34,28.78,105.09,68.63,94,5.82,100
2737599,Saldanha,PT,07/03/2019 23:10:35,41.42,-6.55,65.39,76,4.5,67
5892532,Banff,CA,07/03/2019 23:10:32,51.18,-115.57,48.0,94,1.52,100
1139085,Jurm,AF,07/03/2019 23:10:35,36.86,70.83,70.79,38,6.91,0
1267390,Kavaratti,IN,07/03/2019 23:10:36,10.57,72.64,86.0,79,11.41,40
708901,Haysyn,UA,07/03/2019 23:10:36,48.81,29.39,61.25,66,6.87,28
2409751,Koindu,GN,07/03/2019 23:10:36,8.44,-10.33,71.51,99,2.39,100
4799622,Bluefield,US,07/03/2019 23:10:37,37.27,-81.22,69.8,100,1.88,40
3919085,Coroico,BO,07/03/2019 23:10:37,-16.19,-67.73,26.6,86,2.24,20
1623197,Tual,ID,07/03/2019 23:10:37,-5.67,132.75,77.81,79,18.37,100
2088659,Panguna,PG,07/03/2019 23:10:37,-6.32,155.48,82.31,77,12.68,53
2088122,Port Moresby,PG,07/03/2019 23:10:37,-9.47,147.16,80.6,78,17.22,40
1786538,Yining,CN,07/03/2019 23:10:38,29.04,114.56,75.65,97,2.33,100
496285,Severodvinsk,RU,07/03/2019 23:10:38,64.56,39.82,60.8,93,2.24,90
545938,Komarikhinskiy,RU,07/03/2019 23:10:39,58.1,57.12,68.0,72,13.42,20
2092164,Lorengau,PG,07/03/2019 23:10:39,-2.02,147.27,81.59,76,1.83,23
3491161,Bull Savanna,JM,07/03/2019 23:10:39,17.89,-77.59,79.97,81,8.08,72
685981,Manta,RO,07/03/2019 23:10:40,45.1,24.1,65.75,79,1.74,33
500678,Rudnya,RU,07/03/2019 23:10:40,50.8,44.56,70.07,55,10.04,49
3985710,Cabo San Lucas,MX,07/03/2019 23:05:45,22.89,-109.91,79.0,65,4.7,5
1106643,Quatre Cocos,MU,07/03/2019 23:10:40,-20.21,57.76,75.99,83,3.36,40
3838233,Salta,AR,07/03/2019 23:10:41,-24.79,-65.41,50.0,87,3.36,90
3126369,Carballo,ES,07/03/2019 23:10:41,43.21,-8.69,66.0,93,3.36,0
2191562,Dunedin,NZ,07/03/2019 23:09:50,-45.87,170.5,45.0,73,13.0,47
3589805,San Marcos,GT,07/03/2019 23:10:41,14.97,-91.79,77.0,100,6.8,5
454310,Ventspils,LV,07/03/2019 23:10:42,57.39,21.56,60.8,63,8.05,20
2156643,Mount Gambier,AU,07/03/2019 23:10:42,-37.83,140.78,57.2,67,10.29,0
3453439,Ponta do Sol,BR,07/03/2019 23:10:43,-20.63,-46.0,62.51,58,5.41,38
3136690,Stokmarknes,NO,07/03/2019 23:10:43,68.56,14.91,50.0,66,8.05,40
3839307,Rawson,AR,07/03/2019 23:10:43,-43.3,-65.11,31.55,78,14.63,0
117656,Ayan,IR,07/03/2019 23:10:43,38.23,44.7,63.59,36,5.39,0
548333,Kirs,RU,07/03/2019 23:10:44,59.34,52.24,66.47,50,10.22,0
633221,Uusikaupunki,FI,07/03/2019 23:10:44,60.8,21.41,57.2,58,5.82,0
471909,Vorontsovka,RU,07/03/2019 23:10:44,50.61,40.34,65.75,58,8.7,0
4509177,Columbus,US,07/03/2019 23:05:51,39.96,-83.0,71.01,94,3.36,90
2052479,Zhuhai,CN,07/03/2019 23:10:45,40.71,112.04,78.8,36,8.95,40
2208248,Kaitangata,NZ,07/03/2019 23:10:45,-46.28,169.85,43.0,73,4.0,34
1300969,Paungde,MM,07/03/2019 23:10:45,18.49,95.51,79.25,90,4.99,100
779622,Havoysund,NO,07/03/2019 23:10:46,71.0,24.66,44.6,93,14.99,75
2127515,Wakkanai,JP,07/03/2019 23:10:46,45.41,141.67,64.4,77,19.46,20
1710518,Isabela,PH,07/03/2019 23:10:46,10.2,122.99,83.39,72,8.01,100
3402648,Carutapera,BR,07/03/2019 23:10:46,-1.2,-46.02,76.91,88,5.32,4
866062,Iskateley,RU,07/03/2019 23:10:47,67.68,53.15,77.45,49,12.93,58
2413419,Gunjur,GM,07/03/2019 23:10:47,13.18,-16.76,77.0,94,5.82,0
2510725,Tacoronte,ES,07/03/2019 23:10:47,28.48,-16.41,72.0,100,19.46,75
1850345,Toba,JP,07/03/2019 23:10:48,34.47,136.83,87.01,83,8.05,75
632669,Valkeala,FI,07/03/2019 23:07:20,60.94,26.8,55.0,66,10.29,0
203717,Yangambi,CD,07/03/2019 23:10:48,0.77,24.47,74.93,87,2.3,100
564022,Duvan,RU,07/03/2019 23:10:49,55.69,57.9,68.81,58,10.78,23
3393692,Itarema,BR,07/03/2019 23:10:49,-2.92,-39.92,70.61,97,4.92,7
1214488,Meulaboh,ID,07/03/2019 23:10:49,4.14,96.13,83.75,74,7.02,99
1731248,Alugan,PH,07/03/2019 23:10:50,12.22,125.48,87.89,65,5.41,23
2640377,Penzance,GB,07/03/2019 23:10:50,50.12,-5.53,60.01,76,9.17,0
6972233,Xinpu,CN,07/03/2019 23:10:50,27.63,119.93,70.61,97,2.55,100
3388456,Sao Jose da Coroa Grande,BR,07/03/2019 23:10:51,-8.9,-35.15,69.89,95,1.57,0
749502,Cayeli,TR,07/03/2019 23:10:51,41.09,40.73,73.85,68,4.59,36
6104820,Pinawa,CA,07/03/2019 23:10:51,50.15,-95.88,57.0,92,3.0,100
962367,Richards Bay,ZA,07/03/2019 23:10:52,-28.77,32.06,65.39,61,15.35,0
2012530,Zhigansk,RU,07/03/2019 23:10:52,66.77,123.37,60.71,35,4.07,100
1630639,Pringsewu,ID,07/03/2019 23:10:52,-5.36,104.98,85.19,58,7.67,16
5894171,Barrie,CA,07/03/2019 23:10:52,44.38,-79.7,66.0,93,2.24,1
2013279,Vostok,RU,07/03/2019 23:10:53,46.45,135.83,68.09,92,4.32,99
1283679,Banepa,NP,07/03/2019 23:08:38,27.63,85.52,82.4,74,9.17,75
1788268,Dongsheng,CN,07/03/2019 23:10:53,29.72,112.52,85.37,68,8.28,100
2352110,Okitipupa,NG,07/03/2019 23:10:53,6.5,4.78,74.57,96,3.09,100
2335204,Kano,NG,07/03/2019 23:10:54,11.99,8.53,73.4,94,3.36,40
2449893,Tessalit,ML,07/03/2019 23:10:54,20.2,1.01,92.39,21,12.68,0
1057095,Sakaraha,MG,07/03/2019 23:10:54,-22.91,44.53,62.69,78,7.14,8
1259385,Port Blair,IN,07/03/2019 23:10:32,11.67,92.75,84.2,83,11.41,90
5314245,Show Low,US,07/03/2019 23:06:14,34.25,-110.03,69.8,34,6.93,1
6316343,Alta Floresta,BR,07/03/2019 23:10:55,-9.87,-56.08,72.41,69,2.37,18
152497,Muriti,TZ,07/03/2019 23:10:55,-1.99,32.93,71.69,67,23.62,19
286987,Nizwa,OM,07/03/2019 23:10:56,22.93,57.53,99.05,19,5.14,33
2867138,Naila,DE,07/03/2019 23:10:56,50.33,11.71,61.0,66,8.05,0
2396853,Omboue,GA,07/03/2019 23:10:56,-1.57,9.26,72.95,85,8.75,83
2126710,Beringovskiy,RU,07/03/2019 23:10:56,63.05,179.32,68.09,43,10.07,0
3464724,Diamantino,BR,07/03/2019 23:10:57,-14.4,-56.44,69.53,69,4.41,1
1253251,Venkatagiri,IN,07/03/2019 23:10:57,13.96,79.58,95.0,39,9.17,20
6085772,Nanaimo,CA,07/03/2019 23:09:49,49.17,-123.94,64.0,72,9.17,75
2173911,Broken Hill,AU,07/03/2019 23:10:57,-31.97,141.45,60.8,51,12.75,0
2129072,Kushiro,JP,07/03/2019 23:10:58,43.11,144.15,60.8,82,3.36,75
1152222,Mae Hong Son,MM,07/03/2019 23:10:58,19.3,97.96,84.2,66,3.36,75
528248,Mayskiy,RU,07/03/2019 23:10:58,43.63,44.06,84.2,39,2.24,20
5767918,Pierre,US,07/03/2019 23:10:59,44.37,-100.35,66.0,88,18.34,75
1218612,Murgab,TM,07/03/2019 23:10:59,37.5,61.97,86.0,27,9.17,0
2035410,Qianan,CN,07/03/2019 23:10:59,44.99,124.06,90.23,30,7.58,0
187231,Maua,KE,07/03/2019 23:11:00,0.23,37.94,58.19,65,1.95,28
2068655,Katherine,AU,07/03/2019 23:11:00,-14.47,132.26,86.0,13,10.29,28
2270385,Camacha,PT,07/03/2019 23:11:00,33.08,-16.33,69.8,93,5.82,75
877747,Mtwara,TZ,07/03/2019 23:06:54,-10.28,40.18,74.03,68,11.92,2
2290582,Jackville,CI,07/03/2019 23:11:01,5.21,-4.42,78.8,94,5.82,75
964406,Port Shepstone,ZA,07/03/2019 23:11:01,-30.74,30.45,56.39,50,4.88,0
1502192,Krapivinskiy,RU,07/03/2019 23:11:01,55.0,86.81,75.2,53,8.95,40
3894406,Coihueco,CL,07/03/2019 23:11:01,-36.63,-71.83,44.6,100,9.17,48
649924,Kuusamo,FI,07/03/2019 23:06:04,65.96,29.19,50.0,100,9.17,90
1525798,Balkhash,KZ,07/03/2019 23:11:02,46.84,74.98,78.8,54,17.9,0
1516438,Zyryanovsk,KZ,07/03/2019 23:11:02,49.74,84.27,64.49,75,4.59,100
494884,Shenkursk,RU,07/03/2019 23:11:02,62.11,42.91,59.27,85,2.8,76
110690,Faya,SA,07/03/2019 23:11:03,18.39,42.45,80.6,32,4.79,5
3445442,Varzelandia,BR,07/03/2019 23:11:03,-15.7,-44.03,65.39,49,2.37,50
584051,Svetlogorsk,RU,07/03/2019 23:11:04,53.14,59.15,71.6,46,17.9,40
2012956,Yerbogachen,RU,07/03/2019 23:11:04,61.28,108.01,76.55,32,8.61,46
5197079,Lancaster,US,07/03/2019 23:11:04,40.04,-76.31,75.2,88,1.74,1
2249901,Gat,SN,07/03/2019 23:11:05,14.69,-16.54,75.2,88,8.05,20
3520271,Nuevo Progreso,US,07/03/2019 23:11:05,26.05,-97.95,82.4,83,8.05,40
2138285,Tadine,NC,07/03/2019 23:11:05,-21.55,167.88,72.95,66,6.26,51
220448,Aketi,CD,07/03/2019 23:11:05,2.74,23.78,70.97,93,2.35,100
2026544,Bokhan,RU,07/03/2019 23:11:06,53.15,103.77,71.87,38,16.04,0
2047258,Novyy Urgal,RU,07/03/2019 23:11:06,51.07,132.56,79.43,39,6.87,4
1799869,Nanning,CN,07/03/2019 23:11:06,22.83,108.3,86.0,74,8.95,75
3465342,Puerto Quijarro,BO,07/03/2019 23:11:07,-19.0,-57.72,58.73,96,5.23,77
6255012,Flinders,AU,07/03/2019 23:11:07,-34.58,150.85,60.01,67,10.29,75
3868633,Vallenar,CL,07/03/2019 23:11:07,-28.58,-70.76,47.57,74,3.09,13
2014624,Udachnyy,RU,07/03/2019 23:11:07,66.42,112.4,73.4,40,11.18,90
2214846,Misratah,LY,07/03/2019 23:11:08,32.38,15.09,77.63,62,2.89,0
2874131,Malchin,DE,07/03/2019 23:11:08,53.74,12.76,60.01,76,9.17,20
5686121,Whitefish,US,07/03/2019 23:11:08,48.41,-114.33,54.0,93,2.8,1
1281256,Gamba,CN,07/03/2019 23:11:09,28.28,88.52,61.43,29,5.53,63
5961417,Gimli,CA,07/03/2019 23:11:09,50.63,-96.99,61.0,91,5.82,100
5859699,College,US,07/03/2019 23:11:09,64.86,-147.8,69.8,64,6.93,90
2447513,Arlit,NE,07/03/2019 23:11:10,18.74,7.39,93.11,21,8.32,7
1733023,Kuala Lipis,MY,07/03/2019 23:11:10,4.19,102.05,89.87,59,1.43,82
4278471,Russell,US,07/03/2019 23:11:10,38.9,-98.86,73.99,73,11.41,1
934479,Grand Gaube,MU,07/03/2019 23:11:10,-20.01,57.66,75.99,83,3.36,40
1496476,Nyagan,RU,07/03/2019 23:11:11,62.14,65.43,76.01,45,11.61,74
3919353,Guantanamo,BO,07/03/2019 23:11:11,-16.14,-62.05,62.87,99,1.9,12
2178174,Albury,AU,07/03/2019 23:11:11,-36.08,146.92,62.6,51,5.82,2
2022304,Khorinsk,RU,07/03/2019 23:11:12,52.16,109.78,62.87,51,5.35,75
1254377,Tirukkoyilur,IN,07/03/2019 23:11:12,11.95,79.2,95.0,50,9.17,75
5697939,North Platte,US,07/03/2019 23:11:12,41.12,-100.77,72.0,83,4.7,1
502265,Mirnyy,RU,07/03/2019 23:11:12,56.57,36.46,51.53,71,16.98,66
3456864,Monte Azul,BR,07/03/2019 23:11:13,-15.15,-42.87,64.13,55,2.98,0
2018735,Nyurba,RU,07/03/2019 23:11:13,63.29,118.35,51.35,82,4.52,95
3081752,Wladyslawowo,PL,07/03/2019 23:11:13,54.79,18.4,64.0,71,17.22,0
1274381,Chhabra,IN,07/03/2019 23:11:14,24.67,76.85,84.83,70,13.35,100
2517436,Galdar,ES,07/03/2019 23:11:14,28.15,-15.65,69.8,73,17.22,75
922704,Kisanga,CD,07/03/2019 23:11:14,-11.72,27.4,59.0,82,8.05,0
3390864,Acari,BR,07/03/2019 23:11:15,-6.44,-36.64,70.79,85,6.29,56
4787534,Sterling,US,07/03/2019 23:11:15,39.0,-77.4,79.0,83,2.33,1
5954718,Flin Flon,CA,07/03/2019 23:11:15,54.77,-101.88,47.03,70,4.5,12
3181528,Brindisi,IT,07/03/2019 23:11:16,40.63,17.94,84.0,83,9.17,0
1178858,Garhi Khairo,PK,07/03/2019 23:11:16,28.06,67.98,107.69,23,5.17,0
3694197,Oyotun,PE,07/03/2019 23:11:16,-6.85,-79.3,62.6,88,12.75,0
3694112,Paita,PE,07/03/2019 23:11:16,-5.09,-81.11,63.77,91,10.29,0
6324729,Halifax,CA,07/03/2019 23:11:17,44.65,-63.58,60.01,87,9.17,75
3470583,Barreiras,BR,07/03/2019 23:11:17,-12.14,-45.0,65.75,57,2.53,0
1509844,Boguchany,RU,07/03/2019 23:11:17,58.38,97.46,83.57,20,5.23,0
3391371,Porto Franco,BR,07/03/2019 23:11:17,-6.34,-47.4,71.51,89,2.21,1
3403344,Piranhas,BR,07/03/2019 23:11:18,-9.61,-37.76,67.73,99,2.28,19
540761,Kropotkin,RU,07/03/2019 23:11:18,45.43,40.58,79.25,56,5.88,0
1805953,Jiaxing,CN,07/03/2019 23:11:18,30.76,120.75,93.0,88,4.47,75
5919850,Chapais,CA,07/03/2019 23:11:19,49.78,-74.86,62.6,93,5.82,90
3397967,Itaituba,BR,07/03/2019 23:11:19,-4.26,-55.99,70.97,94,1.5,80
1847947,Shingu,JP,07/03/2019 23:11:19,33.72,135.99,78.8,78,11.41,75
5972762,Hay River,CA,07/03/2019 23:11:19,60.82,-115.79,51.8,93,3.36,90
2126682,Bilibino,RU,07/03/2019 23:11:20,68.06,166.44,54.77,45,3.74,99
257122,Methoni,GR,07/03/2019 23:11:20,36.82,21.7,79.0,47,12.75,0
